{
	"tiks": [
		{
			"lon": 45.185169,
			"lat": 54.177432,
			"desc": "ул.Героев Алексинцев, д.10",
			"phone": "8 834 472805",
			"members": 9,
			"url": "http://www.mordov.vybory.izbirkom.ru/region/mordov?action=show_komissia&region=13&sub_region=13&type=100&vrnorg=413401892978&vrnkomis=413401892982",
			"name": "Ленинская территориальная избирательная комиссия"
		}
	],
	"uiks": [
		{
			"lon": 45.1475534,
			"lat": 54.16848,
			"obj": "МОУ «Гимназия № 23»",
			"addr": "ул. Комарова, д. 7",
			"district": "24 Л",
			"phone": "",
			"number": 535
		},
		{
			"lon": 45.1484681,
			"lat": 54.1686078,
			"obj": "МОУ «Гимназия № 23»",
			"addr": "ул. Комарова, д. 7",
			"district": "24 Л",
			"phone": "",
			"number": 536
		},
		{
			"lon": 45.1386383,
			"lat": 54.1719873,
			"obj": "СОШ с углубленным изучением отдельных предметов № 24",
			"addr": "ул. Серадзская, д. 26А",
			"district": "24 Л",
			"phone": "",
			"number": 541
		},
		{
			"lon": 45.1387785,
			"lat": 54.1713488,
			"obj": "СОШ с углубленным изучением отдельных предметов № 24",
			"addr": "ул. Серадзская, д. 26А",
			"district": "24 Л",
			"phone": "",
			"number": 542
		},
		{
			"lon": 45.1343197,
			"lat": 54.1733028,
			"obj": "МОУ «Лицей № 26»",
			"addr": "Серадзская, д. 21",
			"district": "24 Л",
			"phone": "",
			"number": 543
		},
		{
			"lon": 45.1344365,
			"lat": 54.1726325,
			"obj": "МОУ «Лицей № 26»",
			"addr": "Серадзская, д. 21",
			"district": "24 Л",
			"phone": "",
			"number": 544
		},
		{
			"lon": 45.1237529,
			"lat": 54.1703534,
			"obj": "МОУ «СОШ № 33»",
			"addr": "ул. Р. Люксембург, д. 28",
			"district": "24 Л",
			"phone": "",
			"number": 546
		},
		{
			"lon": 45.134199,
			"lat": 54.167792,
			"obj": "Общежитие № 8 ГОУ ВПО «МГУ им. Н. П. Огарева»",
			"addr": "ул. Ульянова, д. 26",
			"district": "24 Л",
			"phone": "",
			"number": 547
		},
		{
			"lon": 45.185169,
			"lat": 54.177432,
			"obj": "МГПИ им. М. Е. Евсевьева», 2 этаж, спортивный зал",
			"addr": "ул. Студенческая, д. 11А",
			"district": "24 О",
			"phone": "",
			"number": 578
		},
		{
			"lon": 45.185169,
			"lat": 54.177432,
			"obj": "МГПИ им. М. Е. Евсевьева», 1 этаж, спортивный зал",
			"addr": "ул. Студенческая, д. 13",
			"district": "24 О",
			"phone": "",
			"number": 579
		},
		{
			"lon": 45.185169,
			"lat": 54.177432,
			"obj": "МОУ «СОШ № 22», 2 этаж, спортивный зал",
			"addr": "ул. П. Морозова, д. 11",
			"district": "24 О",
			"phone": "",
			"number": 580
		},
		{
			"lon": 45.185169,
			"lat": 54.177432,
			"obj": "ГОУ НПО «Профессиональный лицей № 19», 2 этаж, рекреация",
			"addr": "ул. Транспортная, д. 9",
			"district": "24 О",
			"phone": "",
			"number": 581
		},
		{
			"lon": 45.185169,
			"lat": 54.177432,
			"obj": "ГОУ СПО «Саранский электромеханический колледж», 1 этаж, рекреация",
			"addr": "ул. Транспортная, д. 11",
			"district": "24 О",
			"phone": "",
			"number": 582
		},
		{
			"lon": 45.185169,
			"lat": 54.177432,
			"obj": "Саранский кооперативный институт Российского университета кооперации, 1 этаж, аудитория № 106",
			"addr": "ул. Транспортная, д. 17",
			"district": "24 О",
			"phone": "",
			"number": 583
		},
		{
			"lon": 45.129473,
			"lat": 54.166807,
			"obj": "ГУЗ «Республиканский онкологический диспансер»",
			"addr": "ул. Ульянова, д. 30",
			"district": "24 Л",
			"phone": "",
			"number": 789
		},
		{
			"lon": 45.131019,
			"lat": 54.166701,
			"obj": "ГБУЗ РМ «Республиканская клиническая больница № 4»",
			"addr": "ул. Ульянова, д. 32",
			"district": "24 Л",
			"phone": "",
			"number": 790
		},
		{
			"lon": 45.139606,
			"lat": 54.161714,
			"obj": "Республиканский противотуберкулёзный диспансер",
			"addr": "ул. Ульянова, д. 34",
			"district": "24 Л",
			"phone": "",
			"number": 791
		}
	]
}
